{
"type": "FeatureCollection",
"name": "topo-points",
"crs": { "type": "name", "properties": { "name": "urn:ogc:def:crs:OGC:1.3:CRS84" } },
"features": [
{ "type": "Feature", "properties": { "name": "Three Rocks", "kind": "peak", "elevation": 3243 }, "geometry": { "type": "Point", "coordinates": [ -118.33448, 36.3133318 ] } },
{ "type": "Feature", "properties": { "name": "Kern Peak", "kind": "peak", "elevation": 3499 }, "geometry": { "type": "Point", "coordinates": [ -118.287779, 36.3084512 ] } },
{ "type": "Feature", "properties": { "name": "Coyote Peaks", "kind": "peak", "elevation": 3276 }, "geometry": { "type": "Point", "coordinates": [ -118.447219, 36.3121096 ] } },
{ "type": "Feature", "properties": { "name": "Overlook Mountain", "kind": "peak", "elevation": 3108 }, "geometry": { "type": "Point", "coordinates": [ -118.3726868, 36.3338562 ] } },
{ "type": "Feature", "properties": { "name": "Tower Rock", "kind": "peak", "elevation": 2590 }, "geometry": { "type": "Point", "coordinates": [ -118.3972526, 36.3390565 ] } },
{ "type": "Feature", "properties": { "name": "Groundhog Cone", "kind": "peak", "elevation": 2794 }, "geometry": { "type": "Point", "coordinates": [ -118.317411, 36.3587183 ] } },
{ "type": "Feature", "properties": { "name": "Red Hill", "kind": "peak", "elevation": 2870 }, "geometry": { "type": "Point", "coordinates": [ -118.281685, 36.35478 ] } },
{ "type": "Feature", "properties": { "name": "Tunnel Cone", "kind": "peak", "elevation": 2837 }, "geometry": { "type": "Point", "coordinates": [ -118.2823445, 36.3665183 ] } },
{ "type": "Feature", "properties": { "name": "Little Whitney Cone", "kind": "peak", "elevation": 2680 }, "geometry": { "type": "Point", "coordinates": [ -118.3355535, 36.3849346 ] } },
{ "type": "Feature", "properties": { "name": "Johnson Peak", "kind": "peak", "elevation": 3468 }, "geometry": { "type": "Point", "coordinates": [ -118.3333178, 36.4198981 ] } },
{ "type": "Feature", "properties": { "name": "Needham Mountain", "kind": "peak", "elevation": 3816 }, "geometry": { "type": "Point", "coordinates": [ -118.53731, 36.45446 ] } },
{ "type": "Feature", "properties": { "name": "North Sawtooth Peak", "kind": "peak", "elevation": 3623 }, "geometry": { "type": "Point", "coordinates": [ -118.56192, 36.46226 ] } },
{ "type": "Feature", "properties": { "name": "Sawtooth Peak", "kind": "peak", "elevation": 3759 }, "geometry": { "type": "Point", "coordinates": [ -118.55534, 36.455425 ] } },
{ "type": "Feature", "properties": { "name": "Mineral Peak", "kind": "peak", "elevation": 3540 }, "geometry": { "type": "Point", "coordinates": [ -118.5651, 36.44682 ] } },
{ "type": "Feature", "properties": { "name": "Rainbow Mountain", "kind": "peak", "elevation": 3671 }, "geometry": { "type": "Point", "coordinates": [ -118.550092, 36.4238626 ] } },
{ "type": "Feature", "properties": { "name": "Tulare Peak", "kind": "peak", "elevation": 3552 }, "geometry": { "type": "Point", "coordinates": [ -118.5634157, 36.4120294 ] } },
{ "type": "Feature", "properties": { "name": "Bullfrog Peak", "kind": "peak", "elevation": 3755 }, "geometry": { "type": "Point", "coordinates": [ -118.5481882, 36.3906156 ] } },
{ "type": "Feature", "properties": { "name": "Florence Peak", "kind": "peak", "elevation": 3789 }, "geometry": { "type": "Point", "coordinates": [ -118.5509251, 36.4063298 ] } },
{ "type": "Feature", "properties": { "name": "Vandever Mountain", "kind": "peak", "elevation": 3636 }, "geometry": { "type": "Point", "coordinates": [ -118.5811885, 36.3983369 ] } },
{ "type": "Feature", "properties": { "name": "Falcon Peak", "kind": "peak", "elevation": 3592 }, "geometry": { "type": "Point", "coordinates": [ -118.5845992, 36.3928157 ] } },
{ "type": "Feature", "properties": { "name": "White Chief Peak", "kind": "peak", "elevation": 3391 }, "geometry": { "type": "Point", "coordinates": [ -118.59768, 36.40528 ] } },
{ "type": "Feature", "properties": { "name": "Hengst Peak", "kind": "peak", "elevation": 3392 }, "geometry": { "type": "Point", "coordinates": [ -118.6215828, 36.4105672 ] } },
{ "type": "Feature", "properties": { "name": "Eagle Crest", "kind": "peak", "elevation": 3411 }, "geometry": { "type": "Point", "coordinates": [ -118.6017358, 36.4122689 ] } },
{ "type": "Feature", "properties": { "name": "Miners Nose", "kind": "peak", "elevation": 2868 }, "geometry": { "type": "Point", "coordinates": [ -118.605367, 36.4430605 ] } },
{ "type": "Feature", "properties": { "name": "Empire Mountain", "kind": "peak", "elevation": 3522 }, "geometry": { "type": "Point", "coordinates": [ -118.5773415, 36.4672924 ] } },
{ "type": "Feature", "properties": { "name": "Pine Top Mountain", "kind": "peak", "elevation": 2418 }, "geometry": { "type": "Point", "coordinates": [ -118.7145402, 36.4657775 ] } },
{ "type": "Feature", "properties": { "name": "River Hill", "kind": "peak", "elevation": 848 }, "geometry": { "type": "Point", "coordinates": [ -118.820653, 36.4632794 ] } },
{ "type": "Feature", "properties": { "name": "Case Mountain", "kind": "peak", "elevation": 2073 }, "geometry": { "type": "Point", "coordinates": [ -118.8032063, 36.4112257 ] } },
{ "type": "Feature", "properties": { "name": "Cahoon Mountain", "kind": "peak", "elevation": 1269 }, "geometry": { "type": "Point", "coordinates": [ -118.8223194, 36.3727245 ] } },
{ "type": "Feature", "properties": { "name": "Homer's Nose", "kind": "peak", "elevation": 2734 }, "geometry": { "type": "Point", "coordinates": [ -118.7377669, 36.385075 ] } },
{ "type": "Feature", "properties": { "name": "Cahoon Rock", "kind": "peak", "elevation": 2798 }, "geometry": { "type": "Point", "coordinates": [ -118.6901133, 36.3788233 ] } },
{ "type": "Feature", "properties": { "name": "Dennison Peak", "kind": "peak", "elevation": 2226 }, "geometry": { "type": "Point", "coordinates": [ -118.7604048, 36.296829 ] } },
{ "type": "Feature", "properties": { "name": "Dennison Mountain", "kind": "peak", "elevation": 2645 }, "geometry": { "type": "Point", "coordinates": [ -118.7464606, 36.3187635 ] } },
{ "type": "Feature", "properties": { "name": "Scratch Hill", "kind": "peak", "elevation": 1334 }, "geometry": { "type": "Point", "coordinates": [ -118.7728262, 36.3466125 ] } },
{ "type": "Feature", "properties": { "name": "Grouse Peak", "kind": "peak", "elevation": 1621 }, "geometry": { "type": "Point", "coordinates": [ -118.8194845, 36.3334649 ] } },
{ "type": "Feature", "properties": { "name": "Moses Mountain", "kind": "peak", "elevation": 2820 }, "geometry": { "type": "Point", "coordinates": [ -118.6810689, 36.2786406 ] } },
{ "type": "Feature", "properties": { "name": "North Maggie Mountain", "kind": "peak", "elevation": 3119 }, "geometry": { "type": "Point", "coordinates": [ -118.638009, 36.276837 ] } },
{ "type": "Feature", "properties": { "name": "Sheep Mountain", "kind": "peak", "elevation": 3061 }, "geometry": { "type": "Point", "coordinates": [ -118.625167, 36.3084542 ] } },
{ "type": "Feature", "properties": { "name": "Quinn Peak", "kind": "peak", "elevation": 3102 }, "geometry": { "type": "Point", "coordinates": [ -118.589359, 36.3346142 ] } },
{ "type": "Feature", "properties": { "name": "Soda Butte", "kind": "peak", "elevation": 2701 }, "geometry": { "type": "Point", "coordinates": [ -118.5718542, 36.3221473 ] } },
{ "type": "Feature", "properties": { "name": "Cactus Point", "kind": "peak", "elevation": 1142 }, "geometry": { "type": "Point", "coordinates": [ -118.8193006, 36.5101363 ] } },
{ "type": "Feature", "properties": { "name": "Colony Peak", "kind": "peak", "elevation": 1870 }, "geometry": { "type": "Point", "coordinates": [ -118.8225999, 36.5624456 ] } },
{ "type": "Feature", "properties": { "name": "Switchback Peak", "kind": "peak", "elevation": 1514 }, "geometry": { "type": "Point", "coordinates": [ -118.7908848, 36.5386277 ] } },
{ "type": "Feature", "properties": { "name": "Moro Rock", "kind": "peak", "elevation": 2050 }, "geometry": { "type": "Point", "coordinates": [ -118.7651094, 36.5440904 ] } },
{ "type": "Feature", "properties": { "name": "Bobcat Point", "kind": "peak", "elevation": 2039 }, "geometry": { "type": "Point", "coordinates": [ -118.7526584, 36.5502588 ] } },
{ "type": "Feature", "properties": { "name": "Bear Hill", "kind": "peak", "elevation": 2045 }, "geometry": { "type": "Point", "coordinates": [ -118.7698206, 36.5607782 ] } },
{ "type": "Feature", "properties": { "name": "Sunset Rock", "kind": "peak", "elevation": 1941 }, "geometry": { "type": "Point", "coordinates": [ -118.7747745, 36.5756852 ] } },
{ "type": "Feature", "properties": { "name": "Panther Peak", "kind": "peak", "elevation": 2758 }, "geometry": { "type": "Point", "coordinates": [ -118.7156531, 36.5832769 ] } },
{ "type": "Feature", "properties": { "name": "The Fin", "kind": "peak", "elevation": 2329 }, "geometry": { "type": "Point", "coordinates": [ -118.7167801, 36.510537 ] } },
{ "type": "Feature", "properties": { "name": "Castle Rock Spire", "kind": "peak", "elevation": 2316 }, "geometry": { "type": "Point", "coordinates": [ -118.7184481, 36.5087859 ] } },
{ "type": "Feature", "properties": { "name": "Milk Ranch Peak", "kind": "peak", "elevation": 1904 }, "geometry": { "type": "Point", "coordinates": [ -118.7809569, 36.4833759 ] } },
{ "type": "Feature", "properties": { "name": "Ampitheater Dome", "kind": "peak", "elevation": 2768 }, "geometry": { "type": "Point", "coordinates": [ -118.702404, 36.4963066 ] } },
{ "type": "Feature", "properties": { "name": "Paradise Peak", "kind": "peak", "elevation": 2854 }, "geometry": { "type": "Point", "coordinates": [ -118.6973849, 36.4773169 ] } },
{ "type": "Feature", "properties": { "name": "Mount Eisen", "kind": "peak", "elevation": 3714 }, "geometry": { "type": "Point", "coordinates": [ -118.5684267, 36.4982735 ] } },
{ "type": "Feature", "properties": { "name": "Mount Kaweah", "kind": "peak", "elevation": 4205 }, "geometry": { "type": "Point", "coordinates": [ -118.478516, 36.526108 ] } },
{ "type": "Feature", "properties": { "name": "Lippincott Mountain", "kind": "peak", "elevation": 3731 }, "geometry": { "type": "Point", "coordinates": [ -118.5628714, 36.5213288 ] } },
{ "type": "Feature", "properties": { "name": "Eagle Scout Peak", "kind": "peak", "elevation": 3658 }, "geometry": { "type": "Point", "coordinates": [ -118.5619, 36.545773 ] } },
{ "type": "Feature", "properties": { "name": "Black Kaweah", "kind": "peak", "elevation": 4140 }, "geometry": { "type": "Point", "coordinates": [ -118.51591, 36.545403 ] } },
{ "type": "Feature", "properties": { "name": "Michael's Pinnacle", "kind": "peak", "elevation": 4170 }, "geometry": { "type": "Point", "coordinates": [ -118.504538, 36.5388337 ] } },
{ "type": "Feature", "properties": { "name": "Red Kaweah", "kind": "peak", "elevation": 4185 }, "geometry": { "type": "Point", "coordinates": [ -118.50569, 36.53995 ] } },
{ "type": "Feature", "properties": { "name": "Squaretop", "kind": "peak", "elevation": 4122 }, "geometry": { "type": "Point", "coordinates": [ -118.4984171, 36.5358468 ] } },
{ "type": "Feature", "properties": { "name": "Bilko Pinnacle", "kind": "peak", "elevation": 4087 }, "geometry": { "type": "Point", "coordinates": [ -118.4974301, 36.5344589 ] } },
{ "type": "Feature", "properties": { "name": "Second Kaweah", "kind": "peak", "elevation": 4166 }, "geometry": { "type": "Point", "coordinates": [ -118.493042, 36.5331615 ] } },
{ "type": "Feature", "properties": { "name": "Koontz Pinnacle", "kind": "peak", "elevation": 4145 }, "geometry": { "type": "Point", "coordinates": [ -118.5082179, 36.5460872 ] } },
{ "type": "Feature", "properties": { "name": "Pyramidal Pinnacle", "kind": "peak", "elevation": 4116 }, "geometry": { "type": "Point", "coordinates": [ -118.5087462, 36.546305 ] } },
{ "type": "Feature", "properties": { "name": "Kaweah Queen", "kind": "peak", "elevation": 4074 }, "geometry": { "type": "Point", "coordinates": [ -118.5086902, 36.5547531 ] } },
{ "type": "Feature", "properties": { "name": "Lawson Peak", "kind": "peak", "elevation": 3999 }, "geometry": { "type": "Point", "coordinates": [ -118.51443, 36.56015 ] } },
{ "type": "Feature", "properties": { "name": "Picket Guard Peak", "kind": "peak", "elevation": 3744 }, "geometry": { "type": "Point", "coordinates": [ -118.47309, 36.576595 ] } },
{ "type": "Feature", "properties": { "name": "Lion Rock", "kind": "peak", "elevation": 3767 }, "geometry": { "type": "Point", "coordinates": [ -118.54207, 36.582436 ] } },
{ "type": "Feature", "properties": { "name": "Mount Stewart", "kind": "peak", "elevation": 3708 }, "geometry": { "type": "Point", "coordinates": [ -118.5546355, 36.5697521 ] } },
{ "type": "Feature", "properties": { "name": "Cherubin Dome", "kind": "peak", "elevation": 3182 }, "geometry": { "type": "Point", "coordinates": [ -118.5772515, 36.5725192 ] } },
{ "type": "Feature", "properties": { "name": "Hamilton Dome", "kind": "peak", "elevation": null }, "geometry": { "type": "Point", "coordinates": [ -118.5940004, 36.5545595 ] } },
{ "type": "Feature", "properties": { "name": "Serpent's Tooth", "kind": "peak", "elevation": null }, "geometry": { "type": "Point", "coordinates": [ -118.5836819, 36.5516077 ] } },
{ "type": "Feature", "properties": { "name": "Rowell Tower", "kind": "peak", "elevation": null }, "geometry": { "type": "Point", "coordinates": [ -118.5873056, 36.5527066 ] } },
{ "type": "Feature", "properties": { "name": "Sugarbowl Dome", "kind": "peak", "elevation": 2334 }, "geometry": { "type": "Point", "coordinates": [ -118.6482962, 36.5527887 ] } },
{ "type": "Feature", "properties": { "name": "Little Blue Dome", "kind": "peak", "elevation": 2236 }, "geometry": { "type": "Point", "coordinates": [ -118.6577339, 36.5641007 ] } },
{ "type": "Feature", "properties": { "name": "Alta Peak", "kind": "peak", "elevation": 3437 }, "geometry": { "type": "Point", "coordinates": [ -118.6633845, 36.5905818 ] } },
{ "type": "Feature", "properties": { "name": "Tharps Rock", "kind": "peak", "elevation": 3261 }, "geometry": { "type": "Point", "coordinates": [ -118.668539, 36.5853373 ] } },
{ "type": "Feature", "properties": { "name": "Winter Alta", "kind": "peak", "elevation": 3453 }, "geometry": { "type": "Point", "coordinates": [ -118.6534663, 36.5980509 ] } },
{ "type": "Feature", "properties": { "name": "Big Bird Peak", "kind": "peak", "elevation": 3536 }, "geometry": { "type": "Point", "coordinates": [ -118.6039568, 36.6124963 ] } },
{ "type": "Feature", "properties": { "name": "Horn Peak", "kind": "peak", "elevation": 3584 }, "geometry": { "type": "Point", "coordinates": [ -118.5837007, 36.6037289 ] } },
{ "type": "Feature", "properties": { "name": "Copper Mine Peak", "kind": "peak", "elevation": 3763 }, "geometry": { "type": "Point", "coordinates": [ -118.5529687, 36.5978929 ] } },
{ "type": "Feature", "properties": { "name": "Glacier Ridge", "kind": "peak", "elevation": 3767 }, "geometry": { "type": "Point", "coordinates": [ -118.55889, 36.617634 ] } },
{ "type": "Feature", "properties": { "name": "Triple Divide Peak", "kind": "peak", "elevation": 3839 }, "geometry": { "type": "Point", "coordinates": [ -118.5308057, 36.5928629 ] } },
{ "type": "Feature", "properties": { "name": "Centennial Peak", "kind": "peak", "elevation": 4026 }, "geometry": { "type": "Point", "coordinates": [ -118.4900947, 36.6277154 ] } },
{ "type": "Feature", "properties": { "name": "Milestone Mesa", "kind": "peak", "elevation": 4126 }, "geometry": { "type": "Point", "coordinates": [ -118.4723783, 36.6309924 ] } },
{ "type": "Feature", "properties": { "name": "Milestone Mountain", "kind": "peak", "elevation": 4149 }, "geometry": { "type": "Point", "coordinates": [ -118.484319, 36.6344661 ] } },
{ "type": "Feature", "properties": { "name": "Midway Mountain", "kind": "peak", "elevation": 4140 }, "geometry": { "type": "Point", "coordinates": [ -118.4835642, 36.6432754 ] } },
{ "type": "Feature", "properties": { "name": "Whaleback", "kind": "peak", "elevation": 3573 }, "geometry": { "type": "Point", "coordinates": [ -118.5314513, 36.6303037 ] } },
{ "type": "Feature", "properties": { "name": "Table Mountain", "kind": "peak", "elevation": 4151 }, "geometry": { "type": "Point", "coordinates": [ -118.473699, 36.6604884 ] } },
{ "type": "Feature", "properties": { "name": "Thunder Mountain", "kind": "peak", "elevation": 4122 }, "geometry": { "type": "Point", "coordinates": [ -118.47577, 36.669 ] } },
{ "type": "Feature", "properties": { "name": "Mount Sheldon", "kind": "peak", "elevation": 3858 }, "geometry": { "type": "Point", "coordinates": [ -118.5039318, 36.6952037 ] } },
{ "type": "Feature", "properties": { "name": "Sky Pilot Peak", "kind": "peak", "elevation": 3966 }, "geometry": { "type": "Point", "coordinates": [ -118.4786721, 36.6860735 ] } },
{ "type": "Feature", "properties": { "name": "South Guard", "kind": "peak", "elevation": 4021 }, "geometry": { "type": "Point", "coordinates": [ -118.483925, 36.693474 ] } },
{ "type": "Feature", "properties": { "name": "Mount Brewer", "kind": "peak", "elevation": 4136 }, "geometry": { "type": "Point", "coordinates": [ -118.485186, 36.708432 ] } },
{ "type": "Feature", "properties": { "name": "Barton Peak", "kind": "peak", "elevation": 3162 }, "geometry": { "type": "Point", "coordinates": [ -118.5992642, 36.6916067 ] } },
{ "type": "Feature", "properties": { "name": "Kettle Peak", "kind": "peak", "elevation": 3058 }, "geometry": { "type": "Point", "coordinates": [ -118.7332782, 36.6735762 ] } },
{ "type": "Feature", "properties": { "name": "Twin Peaks", "kind": "peak", "elevation": 3194 }, "geometry": { "type": "Point", "coordinates": [ -118.71033, 36.6644096 ] } },
{ "type": "Feature", "properties": { "name": "Ball Dome", "kind": "peak", "elevation": 2866 }, "geometry": { "type": "Point", "coordinates": [ -118.7043085, 36.6828497 ] } },
{ "type": "Feature", "properties": { "name": "Mount Silliman", "kind": "peak", "elevation": 3397 }, "geometry": { "type": "Point", "coordinates": [ -118.6971, 36.643578 ] } },
{ "type": "Feature", "properties": { "name": "Santa Cruz Dome", "kind": "peak", "elevation": 2923 }, "geometry": { "type": "Point", "coordinates": [ -118.7028229, 36.6252518 ] } },
{ "type": "Feature", "properties": { "name": "Lower Tokopah Dome", "kind": "peak", "elevation": 2891 }, "geometry": { "type": "Point", "coordinates": [ -118.6993682, 36.6238692 ] } },
{ "type": "Feature", "properties": { "name": "The Watchtower", "kind": "peak", "elevation": 2735 }, "geometry": { "type": "Point", "coordinates": [ -118.6988069, 36.6075463 ] } },
{ "type": "Feature", "properties": { "name": "Little Baldy", "kind": "peak", "elevation": 2453 }, "geometry": { "type": "Point", "coordinates": [ -118.8045446, 36.6143895 ] } },
{ "type": "Feature", "properties": { "name": "Shell Mountain", "kind": "peak", "elevation": 2920 }, "geometry": { "type": "Point", "coordinates": [ -118.796603, 36.6953167 ] } },
{ "type": "Feature", "properties": { "name": "Mount Maddox", "kind": "peak", "elevation": 2946 }, "geometry": { "type": "Point", "coordinates": [ -118.7471008, 36.7276502 ] } },
{ "type": "Feature", "properties": { "name": "Mitchell Peak", "kind": "peak", "elevation": 3164 }, "geometry": { "type": "Point", "coordinates": [ -118.7153366, 36.7322044 ] } },
{ "type": "Feature", "properties": { "name": "Sugarloaf", "kind": "peak", "elevation": 2424 }, "geometry": { "type": "Point", "coordinates": [ -118.658988, 36.730497 ] } },
{ "type": "Feature", "properties": { "name": "Sentinel Dome", "kind": "peak", "elevation": 2776 }, "geometry": { "type": "Point", "coordinates": [ -118.644801, 36.7589989 ] } },
{ "type": "Feature", "properties": { "name": "Avalanche Peak", "kind": "peak", "elevation": 3065 }, "geometry": { "type": "Point", "coordinates": [ -118.5823271, 36.7655008 ] } },
{ "type": "Feature", "properties": { "name": "Mount Farquhar", "kind": "peak", "elevation": 3926 }, "geometry": { "type": "Point", "coordinates": [ -118.498277, 36.7284966 ] } },
{ "type": "Feature", "properties": { "name": "North Guard", "kind": "peak", "elevation": 4058 }, "geometry": { "type": "Point", "coordinates": [ -118.48994, 36.71663 ] } },
{ "type": "Feature", "properties": { "name": "Cross Mountain", "kind": "peak", "elevation": 3709 }, "geometry": { "type": "Point", "coordinates": [ -118.503265, 36.7360295 ] } },
{ "type": "Feature", "properties": { "name": "Palmer Mountain", "kind": "peak", "elevation": 3430 }, "geometry": { "type": "Point", "coordinates": [ -118.5692648, 36.7477167 ] } },
{ "type": "Feature", "properties": { "name": "University Peak", "kind": "peak", "elevation": 4138 }, "geometry": { "type": "Point", "coordinates": [ -118.361916, 36.748077 ] } },
{ "type": "Feature", "properties": { "name": "Mount Bago", "kind": "peak", "elevation": 3607 }, "geometry": { "type": "Point", "coordinates": [ -118.438126, 36.77014 ] } },
{ "type": "Feature", "properties": { "name": "West Vidette", "kind": "peak", "elevation": 3820 }, "geometry": { "type": "Point", "coordinates": [ -118.4197641, 36.7338457 ] } },
{ "type": "Feature", "properties": { "name": "The Minster", "kind": "peak", "elevation": 3740 }, "geometry": { "type": "Point", "coordinates": [ -118.4219902, 36.7159054 ] } },
{ "type": "Feature", "properties": { "name": "East Vidette", "kind": "peak", "elevation": 3766 }, "geometry": { "type": "Point", "coordinates": [ -118.400566, 36.744007 ] } },
{ "type": "Feature", "properties": { "name": "Center Peak", "kind": "peak", "elevation": 3880 }, "geometry": { "type": "Point", "coordinates": [ -118.3626381, 36.7219298 ] } },
{ "type": "Feature", "properties": { "name": "Mount Bradley", "kind": "peak", "elevation": 4043 }, "geometry": { "type": "Point", "coordinates": [ -118.3387206, 36.7286437 ] } },
{ "type": "Feature", "properties": { "name": "Independence Peak", "kind": "peak", "elevation": 3571 }, "geometry": { "type": "Point", "coordinates": [ -118.3318898, 36.7611454 ] } },
{ "type": "Feature", "properties": { "name": "Mount Williamson", "kind": "peak", "elevation": 4383 }, "geometry": { "type": "Point", "coordinates": [ -118.311204, 36.6560456 ] } },
{ "type": "Feature", "properties": { "name": "Mount Tyndall", "kind": "peak", "elevation": 4275 }, "geometry": { "type": "Point", "coordinates": [ -118.337293, 36.6557298 ] } },
{ "type": "Feature", "properties": { "name": "Polychrome Peak", "kind": "peak", "elevation": 3970 }, "geometry": { "type": "Point", "coordinates": [ -118.3351832, 36.6725215 ] } },
{ "type": "Feature", "properties": { "name": "Mount Keith", "kind": "peak", "elevation": 4249 }, "geometry": { "type": "Point", "coordinates": [ -118.3434286, 36.7002123 ] } },
{ "type": "Feature", "properties": { "name": "Junction Peak", "kind": "peak", "elevation": 4224 }, "geometry": { "type": "Point", "coordinates": [ -118.3663, 36.691013 ] } },
{ "type": "Feature", "properties": { "name": "Caltech Peak", "kind": "peak", "elevation": 4217 }, "geometry": { "type": "Point", "coordinates": [ -118.3907091, 36.6889884 ] } },
{ "type": "Feature", "properties": { "name": "Mount Stanford", "kind": "peak", "elevation": 4260 }, "geometry": { "type": "Point", "coordinates": [ -118.3958813, 36.7040088 ] } },
{ "type": "Feature", "properties": { "name": "Gregory's Monument", "kind": "peak", "elevation": 4254 }, "geometry": { "type": "Point", "coordinates": [ -118.3959278, 36.7020496 ] } },
{ "type": "Feature", "properties": { "name": "Deerhorn Mountain", "kind": "peak", "elevation": 4043 }, "geometry": { "type": "Point", "coordinates": [ -118.410385, 36.713078 ] } },
{ "type": "Feature", "properties": { "name": "Crag Reflection", "kind": "peak", "elevation": 3676 }, "geometry": { "type": "Point", "coordinates": [ -118.4459451, 36.6935476 ] } },
{ "type": "Feature", "properties": { "name": "Mount Ericsson", "kind": "peak", "elevation": 4151 }, "geometry": { "type": "Point", "coordinates": [ -118.4145479, 36.697258 ] } },
{ "type": "Feature", "properties": { "name": "Mount Genevra", "kind": "peak", "elevation": 3978 }, "geometry": { "type": "Point", "coordinates": [ -118.4340941, 36.683574 ] } },
{ "type": "Feature", "properties": { "name": "Mount Jordan", "kind": "peak", "elevation": 4059 }, "geometry": { "type": "Point", "coordinates": [ -118.449721, 36.682497 ] } },
{ "type": "Feature", "properties": { "name": "Tawny Point", "kind": "peak", "elevation": 3716 }, "geometry": { "type": "Point", "coordinates": [ -118.376175, 36.62789 ] } },
{ "type": "Feature", "properties": { "name": "Kern Point", "kind": "peak", "elevation": 3891 }, "geometry": { "type": "Point", "coordinates": [ -118.4442601, 36.5966038 ] } },
{ "type": "Feature", "properties": { "name": "Trojan Peak", "kind": "peak", "elevation": 4245 }, "geometry": { "type": "Point", "coordinates": [ -118.31531, 36.64231 ] } },
{ "type": "Feature", "properties": { "name": "Mount Versteeg", "kind": "peak", "elevation": 4107 }, "geometry": { "type": "Point", "coordinates": [ -118.32557, 36.647587 ] } },
{ "type": "Feature", "properties": { "name": "Mount Barnard", "kind": "peak", "elevation": 4266 }, "geometry": { "type": "Point", "coordinates": [ -118.321654, 36.6283997 ] } },
{ "type": "Feature", "properties": { "name": "Mount Carl Heller", "kind": "peak", "elevation": 4033 }, "geometry": { "type": "Point", "coordinates": [ -118.2986294, 36.6113154 ] } },
{ "type": "Feature", "properties": { "name": "Tunnabora Peak", "kind": "peak", "elevation": 4136 }, "geometry": { "type": "Point", "coordinates": [ -118.2824365, 36.6051322 ] } },
{ "type": "Feature", "properties": { "name": "The Cleaver", "kind": "peak", "elevation": 4077 }, "geometry": { "type": "Point", "coordinates": [ -118.2747906, 36.5975123 ] } },
{ "type": "Feature", "properties": { "name": "Mount Carillon", "kind": "peak", "elevation": 4135 }, "geometry": { "type": "Point", "coordinates": [ -118.2779054, 36.5924429 ] } },
{ "type": "Feature", "properties": { "name": "Mount Russell", "kind": "peak", "elevation": 4296 }, "geometry": { "type": "Point", "coordinates": [ -118.2910351, 36.590024 ] } },
{ "type": "Feature", "properties": { "name": "Mount Morgenson", "kind": "peak", "elevation": 4244 }, "geometry": { "type": "Point", "coordinates": [ -118.29985, 36.591602 ] } },
{ "type": "Feature", "properties": { "name": "Mount Whitney", "kind": "peak", "elevation": 4420 }, "geometry": { "type": "Point", "coordinates": [ -118.2921377, 36.5785905 ] } },
{ "type": "Feature", "properties": { "name": "Lewis Peak", "kind": "peak", "elevation": 4307 }, "geometry": { "type": "Point", "coordinates": [ -118.2899537, 36.5734364 ] } },
{ "type": "Feature", "properties": { "name": "Crooks Peak", "kind": "peak", "elevation": 4342 }, "geometry": { "type": "Point", "coordinates": [ -118.2906977, 36.5746002 ] } },
{ "type": "Feature", "properties": { "name": "Keeler Needle", "kind": "peak", "elevation": 4361 }, "geometry": { "type": "Point", "coordinates": [ -118.2915107, 36.5755518 ] } },
{ "type": "Feature", "properties": { "name": "Aiguille du Paquoir", "kind": "peak", "elevation": 4270 }, "geometry": { "type": "Point", "coordinates": [ -118.2912648, 36.570825 ] } },
{ "type": "Feature", "properties": { "name": "Aiguille Extra", "kind": "peak", "elevation": 4289 }, "geometry": { "type": "Point", "coordinates": [ -118.2900748, 36.5722074 ] } },
{ "type": "Feature", "properties": { "name": "S'brutal Tower", "kind": "peak", "elevation": 4226 }, "geometry": { "type": "Point", "coordinates": [ -118.292188, 36.5666844 ] } },
{ "type": "Feature", "properties": { "name": "Aiguille Junior", "kind": "peak", "elevation": 4243 }, "geometry": { "type": "Point", "coordinates": [ -118.2919185, 36.5681991 ] } },
{ "type": "Feature", "properties": { "name": "Mount Muir", "kind": "peak", "elevation": 4275 }, "geometry": { "type": "Point", "coordinates": [ -118.2913985, 36.5647519 ] } },
{ "type": "Feature", "properties": { "name": "Wotan's Throne", "kind": "peak", "elevation": 3876 }, "geometry": { "type": "Point", "coordinates": [ -118.27967, 36.566856 ] } },
{ "type": "Feature", "properties": { "name": "Mount Newcomb", "kind": "peak", "elevation": 4090 }, "geometry": { "type": "Point", "coordinates": [ -118.2934232, 36.5399356 ] } },
{ "type": "Feature", "properties": { "name": "Mount McAdie", "kind": "peak", "elevation": 4206 }, "geometry": { "type": "Point", "coordinates": [ -118.27629, 36.55179 ] } },
{ "type": "Feature", "properties": { "name": "Mount Marsh", "kind": "peak", "elevation": 4118 }, "geometry": { "type": "Point", "coordinates": [ -118.27822, 36.554733 ] } },
{ "type": "Feature", "properties": { "name": "Discovery Pinnacle", "kind": "peak", "elevation": 4192 }, "geometry": { "type": "Point", "coordinates": [ -118.2905658, 36.5584021 ] } },
{ "type": "Feature", "properties": { "name": "Mount Hitchcock", "kind": "peak", "elevation": 4019 }, "geometry": { "type": "Point", "coordinates": [ -118.3117143, 36.5549317 ] } },
{ "type": "Feature", "properties": { "name": "Mount Chamberlin", "kind": "peak", "elevation": 4011 }, "geometry": { "type": "Point", "coordinates": [ -118.3106454, 36.533547 ] } },
{ "type": "Feature", "properties": { "name": "Mount Hale", "kind": "peak", "elevation": 4109 }, "geometry": { "type": "Point", "coordinates": [ -118.3142582, 36.5879909 ] } },
{ "type": "Feature", "properties": { "name": "Mount Young", "kind": "peak", "elevation": 4010 }, "geometry": { "type": "Point", "coordinates": [ -118.3273138, 36.5810467 ] } },
{ "type": "Feature", "properties": { "name": "Mount Guyot", "kind": "peak", "elevation": 3750 }, "geometry": { "type": "Point", "coordinates": [ -118.3627655, 36.5090168 ] } },
{ "type": "Feature", "properties": { "name": "Mount Anna Mills", "kind": "peak", "elevation": 3678 }, "geometry": { "type": "Point", "coordinates": [ -118.349941, 36.474439 ] } },
{ "type": "Feature", "properties": { "name": "Joe Devel Peak", "kind": "peak", "elevation": 4063 }, "geometry": { "type": "Point", "coordinates": [ -118.296646, 36.515392 ] } },
{ "type": "Feature", "properties": { "name": "Mount Pickering", "kind": "peak", "elevation": 4105 }, "geometry": { "type": "Point", "coordinates": [ -118.2910085, 36.5272614 ] } },
{ "type": "Feature", "properties": { "name": "Right Stringer Pass", "kind": "pass", "elevation": 2890 }, "geometry": { "type": "Point", "coordinates": [ -118.349618, 36.3238215 ] } },
{ "type": "Feature", "properties": { "name": "West Stringer Saddle", "kind": "pass", "elevation": 3103 }, "geometry": { "type": "Point", "coordinates": [ -118.322153, 36.3134653 ] } },
{ "type": "Feature", "properties": { "name": "Coyote Lakes Pass", "kind": "pass", "elevation": 3211 }, "geometry": { "type": "Point", "coordinates": [ -118.4573284, 36.311036 ] } },
{ "type": "Feature", "properties": { "name": "Saddle Camp Pass", "kind": "pass", "elevation": 2656 }, "geometry": { "type": "Point", "coordinates": [ -118.3750677, 36.3002889 ] } },
{ "type": "Feature", "properties": { "name": "Siberian Pass", "kind": "pass", "elevation": 3333 }, "geometry": { "type": "Point", "coordinates": [ -118.271892, 36.4692153 ] } },
{ "type": "Feature", "properties": { "name": "Glacier Pass", "kind": "pass", "elevation": 3453 }, "geometry": { "type": "Point", "coordinates": [ -118.567698, 36.4642467 ] } },
{ "type": "Feature", "properties": { "name": "Sawtooth Pass", "kind": "pass", "elevation": 3566 }, "geometry": { "type": "Point", "coordinates": [ -118.5616162, 36.4606526 ] } },
{ "type": "Feature", "properties": { "name": "Crystal Pass", "kind": "pass", "elevation": 3484 }, "geometry": { "type": "Point", "coordinates": [ -118.55631, 36.44511 ] } },
{ "type": "Feature", "properties": { "name": "Franklin Pass", "kind": "pass", "elevation": 3571 }, "geometry": { "type": "Point", "coordinates": [ -118.544014, 36.4138958 ] } },
{ "type": "Feature", "properties": { "name": "Shotgun Pass", "kind": "pass", "elevation": 3494 }, "geometry": { "type": "Point", "coordinates": [ -118.5372071, 36.3900377 ] } },
{ "type": "Feature", "properties": { "name": "Farewell Gap", "kind": "pass", "elevation": 3243 }, "geometry": { "type": "Point", "coordinates": [ -118.571508, 36.3996177 ] } },
{ "type": "Feature", "properties": { "name": "Tar Gap", "kind": "pass", "elevation": 3050 }, "geometry": { "type": "Point", "coordinates": [ -118.6434603, 36.4236479 ] } },
{ "type": "Feature", "properties": { "name": "Timber Gap", "kind": "pass", "elevation": 2899 }, "geometry": { "type": "Point", "coordinates": [ -118.59939, 36.4689259 ] } },
{ "type": "Feature", "properties": { "name": "Cinnamon Gap", "kind": "pass", "elevation": 1319 }, "geometry": { "type": "Point", "coordinates": [ -118.828176, 36.407725 ] } },
{ "type": "Feature", "properties": { "name": "Windy Gap", "kind": "pass", "elevation": 2957 }, "geometry": { "type": "Point", "coordinates": [ -118.603152, 36.330166 ] } },
{ "type": "Feature", "properties": { "name": "Coyote Pass", "kind": "pass", "elevation": 3092 }, "geometry": { "type": "Point", "coordinates": [ -118.485255, 36.3350239 ] } },
{ "type": "Feature", "properties": { "name": "Panther Gap", "kind": "pass", "elevation": 2586 }, "geometry": { "type": "Point", "coordinates": [ -118.705464, 36.584419 ] } },
{ "type": "Feature", "properties": { "name": "Cyclamen Lake Pass", "kind": "pass", "elevation": 3392 }, "geometry": { "type": "Point", "coordinates": [ -118.5471368, 36.4741687 ] } },
{ "type": "Feature", "properties": { "name": "Black Rock Pass", "kind": "pass", "elevation": 3565 }, "geometry": { "type": "Point", "coordinates": [ -118.552092, 36.4858471 ] } },
{ "type": "Feature", "properties": { "name": "Bilko Pass", "kind": "pass", "elevation": 3501 }, "geometry": { "type": "Point", "coordinates": [ -118.5406619, 36.4694106 ] } },
{ "type": "Feature", "properties": { "name": "Eagle Scout Pass", "kind": "pass", "elevation": 3542 }, "geometry": { "type": "Point", "coordinates": [ -118.560397, 36.5431911 ] } },
{ "type": "Feature", "properties": { "name": "Kaweah Gap", "kind": "pass", "elevation": 3258 }, "geometry": { "type": "Point", "coordinates": [ -118.550934, 36.5573459 ] } },
{ "type": "Feature", "properties": { "name": "Kaweah Pass", "kind": "pass", "elevation": 3755 }, "geometry": { "type": "Point", "coordinates": [ -118.4746892, 36.5319014 ] } },
{ "type": "Feature", "properties": { "name": "Pyra-Queen Col", "kind": "pass", "elevation": 3906 }, "geometry": { "type": "Point", "coordinates": [ -118.5081461, 36.5492588 ] } },
{ "type": "Feature", "properties": { "name": "Lawson Pass", "kind": "pass", "elevation": null }, "geometry": { "type": "Point", "coordinates": [ -118.5078679, 36.5651034 ] } },
{ "type": "Feature", "properties": { "name": "Wildflower Pass", "kind": "pass", "elevation": 3620 }, "geometry": { "type": "Point", "coordinates": [ -118.4960562, 36.5705202 ] } },
{ "type": "Feature", "properties": { "name": "Picket Creek Pass", "kind": "pass", "elevation": 3318 }, "geometry": { "type": "Point", "coordinates": [ -118.4623575, 36.5638582 ] } },
{ "type": "Feature", "properties": { "name": "Lion Rock Pass East", "kind": "pass", "elevation": 3587 }, "geometry": { "type": "Point", "coordinates": [ -118.533243, 36.5816596 ] } },
{ "type": "Feature", "properties": { "name": "Lion Rock Pass West", "kind": "pass", "elevation": 3616 }, "geometry": { "type": "Point", "coordinates": [ -118.5379529, 36.5820386 ] } },
{ "type": "Feature", "properties": { "name": "Pants Pass", "kind": "pass", "elevation": 3658 }, "geometry": { "type": "Point", "coordinates": [ -118.527631, 36.5735263 ] } },
{ "type": "Feature", "properties": { "name": "The Right Pass", "kind": "pass", "elevation": 2960 }, "geometry": { "type": "Point", "coordinates": [ -118.6654276, 36.6089524 ] } },
{ "type": "Feature", "properties": { "name": "Tablelands Pass", "kind": "pass", "elevation": 3434 }, "geometry": { "type": "Point", "coordinates": [ -118.6115879, 36.6231583 ] } },
{ "type": "Feature", "properties": { "name": "Pterodactyl Pass", "kind": "pass", "elevation": 3322 }, "geometry": { "type": "Point", "coordinates": [ -118.608033, 36.6044696 ] } },
{ "type": "Feature", "properties": { "name": "Horn Col", "kind": "pass", "elevation": 3450 }, "geometry": { "type": "Point", "coordinates": [ -118.582077, 36.6061146 ] } },
{ "type": "Feature", "properties": { "name": "Elizabeth Pass", "kind": "pass", "elevation": 3466 }, "geometry": { "type": "Point", "coordinates": [ -118.5763969, 36.5992877 ] } },
{ "type": "Feature", "properties": { "name": "Whale Pass", "kind": "pass", "elevation": 3464 }, "geometry": { "type": "Point", "coordinates": [ -118.5317946, 36.6106361 ] } },
{ "type": "Feature", "properties": { "name": "Lion Lake Pass", "kind": "pass", "elevation": 3542 }, "geometry": { "type": "Point", "coordinates": [ -118.538647, 36.5935511 ] } },
{ "type": "Feature", "properties": { "name": "Triple Divide Pass", "kind": "pass", "elevation": 3725 }, "geometry": { "type": "Point", "coordinates": [ -118.525059, 36.5960963 ] } },
{ "type": "Feature", "properties": { "name": "Colby Pass", "kind": "pass", "elevation": 3655 }, "geometry": { "type": "Point", "coordinates": [ -118.500962, 36.6184772 ] } },
{ "type": "Feature", "properties": { "name": "Milestone Pass", "kind": "pass", "elevation": 3952 }, "geometry": { "type": "Point", "coordinates": [ -118.4822103, 36.6336457 ] } },
{ "type": "Feature", "properties": { "name": "Midway Col", "kind": "pass", "elevation": 3927 }, "geometry": { "type": "Point", "coordinates": [ -118.483939, 36.6385045 ] } },
{ "type": "Feature", "properties": { "name": "Talus Pass", "kind": "pass", "elevation": 3505 }, "geometry": { "type": "Point", "coordinates": [ -118.498798, 36.6510077 ] } },
{ "type": "Feature", "properties": { "name": "Glacier Ridge Pass", "kind": "pass", "elevation": 3604 }, "geometry": { "type": "Point", "coordinates": [ -118.560741, 36.63268 ] } },
{ "type": "Feature", "properties": { "name": "Thunder Pass", "kind": "pass", "elevation": 3885 }, "geometry": { "type": "Point", "coordinates": [ -118.4718799, 36.6680794 ] } },
{ "type": "Feature", "properties": { "name": "MacLeod Pass", "kind": "pass", "elevation": 3987 }, "geometry": { "type": "Point", "coordinates": [ -118.4754311, 36.6673909 ] } },
{ "type": "Feature", "properties": { "name": "Thunder Ridge", "kind": "pass", "elevation": 3660 }, "geometry": { "type": "Point", "coordinates": [ -118.4867445, 36.6666267 ] } },
{ "type": "Feature", "properties": { "name": "Longley Pass", "kind": "pass", "elevation": 3797 }, "geometry": { "type": "Point", "coordinates": [ -118.4795442, 36.6912722 ] } },
{ "type": "Feature", "properties": { "name": "Brewer Pass", "kind": "pass", "elevation": 3853 }, "geometry": { "type": "Point", "coordinates": [ -118.480092, 36.7032037 ] } },
{ "type": "Feature", "properties": { "name": "Cinder Col", "kind": "pass", "elevation": 3676 }, "geometry": { "type": "Point", "coordinates": [ -118.491277, 36.6996167 ] } },
{ "type": "Feature", "properties": { "name": "Sphinx Pass", "kind": "pass", "elevation": 3676 }, "geometry": { "type": "Point", "coordinates": [ -118.504092, 36.7108159 ] } },
{ "type": "Feature", "properties": { "name": "JO Pass", "kind": "pass", "elevation": 2870 }, "geometry": { "type": "Point", "coordinates": [ -118.7445332, 36.6757658 ] } },
{ "type": "Feature", "properties": { "name": "Silliman Pass", "kind": "pass", "elevation": 3101 }, "geometry": { "type": "Point", "coordinates": [ -118.706853, 36.6624434 ] } },
{ "type": "Feature", "properties": { "name": "Cahoon Gap", "kind": "pass", "elevation": 2639 }, "geometry": { "type": "Point", "coordinates": [ -118.7370587, 36.6439061 ] } },
{ "type": "Feature", "properties": { "name": "Little Baldy Saddle", "kind": "pass", "elevation": 2240 }, "geometry": { "type": "Point", "coordinates": [ -118.8093522, 36.6195384 ] } },
{ "type": "Feature", "properties": { "name": "Poop Out Pass", "kind": "pass", "elevation": 2779 }, "geometry": { "type": "Point", "coordinates": [ -118.7859213, 36.6879768 ] } },
{ "type": "Feature", "properties": { "name": "Marvin Pass", "kind": "pass", "elevation": 2772 }, "geometry": { "type": "Point", "coordinates": [ -118.734665, 36.7309138 ] } },
{ "type": "Feature", "properties": { "name": "Kanawyer Gap", "kind": "pass", "elevation": 2931 }, "geometry": { "type": "Point", "coordinates": [ -118.7165397, 36.7273042 ] } },
{ "type": "Feature", "properties": { "name": "Avalanche Pass", "kind": "pass", "elevation": 3054 }, "geometry": { "type": "Point", "coordinates": [ -118.55978, 36.74827 ] } },
{ "type": "Feature", "properties": { "name": "University Shoulder", "kind": "pass", "elevation": 3700 }, "geometry": { "type": "Point", "coordinates": [ -118.3737588, 36.7498541 ] } },
{ "type": "Feature", "properties": { "name": "University Pass", "kind": "pass", "elevation": 3856 }, "geometry": { "type": "Point", "coordinates": [ -118.352638, 36.7418766 ] } },
{ "type": "Feature", "properties": { "name": "Symmes Saddle", "kind": "pass", "elevation": 2765 }, "geometry": { "type": "Point", "coordinates": [ -118.2981741, 36.710059 ] } },
{ "type": "Feature", "properties": { "name": "Shepherd Pass", "kind": "pass", "elevation": 3666 }, "geometry": { "type": "Point", "coordinates": [ -118.345716, 36.672187 ] } },
{ "type": "Feature", "properties": { "name": "Junction Pass", "kind": "pass", "elevation": 3986 }, "geometry": { "type": "Point", "coordinates": [ -118.360029, 36.6954995 ] } },
{ "type": "Feature", "properties": { "name": "Ski Mountaineer's Pass", "kind": "pass", "elevation": 4017 }, "geometry": { "type": "Point", "coordinates": [ -118.36931, 36.6926358 ] } },
{ "type": "Feature", "properties": { "name": "Forester Pass", "kind": "pass", "elevation": 4009 }, "geometry": { "type": "Point", "coordinates": [ -118.373593, 36.6944667 ] } },
{ "type": "Feature", "properties": { "name": "Andy's Foot Pass", "kind": "pass", "elevation": 4173 }, "geometry": { "type": "Point", "coordinates": [ -118.3934596, 36.6976887 ] } },
{ "type": "Feature", "properties": { "name": "Harrison Pass", "kind": "pass", "elevation": 3877 }, "geometry": { "type": "Point", "coordinates": [ -118.4041075, 36.6996204 ] } },
{ "type": "Feature", "properties": { "name": "Deerhorn Saddle", "kind": "pass", "elevation": 3847 }, "geometry": { "type": "Point", "coordinates": [ -118.4039641, 36.7088301 ] } },
{ "type": "Feature", "properties": { "name": "Ericsson Pass", "kind": "pass", "elevation": 3840 }, "geometry": { "type": "Point", "coordinates": [ -118.4087851, 36.6995576 ] } },
{ "type": "Feature", "properties": { "name": "Milly's Foot Pass", "kind": "pass", "elevation": 3744 }, "geometry": { "type": "Point", "coordinates": [ -118.4300665, 36.6858705 ] } },
{ "type": "Feature", "properties": { "name": "Little Joe's Pass", "kind": "pass", "elevation": 3844 }, "geometry": { "type": "Point", "coordinates": [ -118.427237, 36.6982941 ] } },
{ "type": "Feature", "properties": { "name": "Lucy's Foot Pass", "kind": "pass", "elevation": 3784 }, "geometry": { "type": "Point", "coordinates": [ -118.4230215, 36.6966329 ] } },
{ "type": "Feature", "properties": { "name": "Rockwell Pass", "kind": "pass", "elevation": 3676 }, "geometry": { "type": "Point", "coordinates": [ -118.365497, 36.6469018 ] } },
{ "type": "Feature", "properties": { "name": "Vacation Pass", "kind": "pass", "elevation": 3859 }, "geometry": { "type": "Point", "coordinates": [ -118.3012551, 36.6131764 ] } },
{ "type": "Feature", "properties": { "name": "Sheep Pass", "kind": "pass", "elevation": 3870 }, "geometry": { "type": "Point", "coordinates": [ -118.3031671, 36.6169992 ] } },
{ "type": "Feature", "properties": { "name": "Tyndall Col", "kind": "pass", "elevation": 3972 }, "geometry": { "type": "Point", "coordinates": [ -118.329598, 36.6493464 ] } },
{ "type": "Feature", "properties": { "name": "Cleaver Col", "kind": "pass", "elevation": 3992 }, "geometry": { "type": "Point", "coordinates": [ -118.2768171, 36.5944189 ] } },
{ "type": "Feature", "properties": { "name": "Russell-Carillon Pass", "kind": "pass", "elevation": 4051 }, "geometry": { "type": "Point", "coordinates": [ -118.2812519, 36.5916548 ] } },
{ "type": "Feature", "properties": { "name": "Sakai Col", "kind": "pass", "elevation": 3961 }, "geometry": { "type": "Point", "coordinates": [ -118.2884646, 36.5860877 ] } },
{ "type": "Feature", "properties": { "name": "Whitney-Russell Pass", "kind": "pass", "elevation": 3999 }, "geometry": { "type": "Point", "coordinates": [ -118.289379, 36.5832211 ] } },
{ "type": "Feature", "properties": { "name": "The Notch", "kind": "pass", "elevation": 4312 }, "geometry": { "type": "Point", "coordinates": [ -118.2935867, 36.5795537 ] } },
{ "type": "Feature", "properties": { "name": "Pinnacle Pass", "kind": "pass", "elevation": 3753 }, "geometry": { "type": "Point", "coordinates": [ -118.2729426, 36.5740173 ] } },
{ "type": "Feature", "properties": { "name": "Arc Pass", "kind": "pass", "elevation": 3940 }, "geometry": { "type": "Point", "coordinates": [ -118.2709699, 36.5518403 ] } },
{ "type": "Feature", "properties": { "name": "Crabtree Pass", "kind": "pass", "elevation": 3839 }, "geometry": { "type": "Point", "coordinates": [ -118.281221, 36.5488446 ] } },
{ "type": "Feature", "properties": { "name": "Whitney Pass", "kind": "pass", "elevation": 4051 }, "geometry": { "type": "Point", "coordinates": [ -118.280899, 36.5554954 ] } },
{ "type": "Feature", "properties": { "name": "Trail Crest", "kind": "pass", "elevation": 4159 }, "geometry": { "type": "Point", "coordinates": [ -118.291579, 36.5593438 ] } },
{ "type": "Feature", "properties": { "name": "Discovery Pass", "kind": "pass", "elevation": 4137 }, "geometry": { "type": "Point", "coordinates": [ -118.2874131, 36.5578172 ] } },
{ "type": "Feature", "properties": { "name": "Kern-Kaweah Pass", "kind": "pass", "elevation": 2777 }, "geometry": { "type": "Point", "coordinates": [ -118.4354027, 36.5799645 ] } },
{ "type": "Feature", "properties": { "name": "Guyot Pass", "kind": "pass", "elevation": 3330 }, "geometry": { "type": "Point", "coordinates": [ -118.3491684, 36.5184022 ] } }
]
}
